 timestamp,seconds_since_1990,pressure_l,pressure_u,asp_temp_l,humidity_l,windspeed_s_l,winddirection_s_l,asp_temp_u,humidity_u,windspeed_s_u,winddirection_s_u,swupper,swlower,lwupper,lwlower, temperatureradsensor,sr_l,sr_u,thermistorstring_1,thermistorstring_2,thermistorstring_3,thermistorstring_4,thermistorstring_5,thermistorstring_6,thermistorstring_7,thermistorstring_8,thermistorstring_9,thermistorstring_10,thermistorstring_11,roll,pitch,heading,rain_amount_l,rain_int_l,rain_amount_u,rain_int_u,timegps,latitude,longitude,altitude,giodal,geounit,quality,numbersatellites,hdop,fancurrent_l,fancurrent_u,battvolt,loggertemppressure_l,pressure_u,asp_temp_l,asp_temp_u,humidity_l,humidity_u,windspeed_a_l,winddirection_a_l,windspeed_a_u,winddirection_a_u,swupper,swlower,lwupper,lwlower,temperatureradsensor,sr_l,sr_u,thermistorstring_1,thermistorstring_2,thermistorstring_3,thermistorstring_4,thermistorstring_5,thermistorstring_6,thermistorstring_7,thermistorstring_8,thermistorstring_9,thermistorstring_10,thermistorstring_11,roll,pitch,heading,rain_amount_l,rain_amount_u,gtime,glat,glon,altitude,hdop,fancurrent_l,fancurrent_u,battvolt,pressureminus1000_l, asp_temp_l, humidity_l,windspeed_s_l,winddirection_s_l,"!s"
-,sec,sample (),sample (),sample (),sample (),windvector (),windvector (),sample (),sample (),windvector (),windvector (),sample (),sample (),sample (),sample (),sample (),sample (),sample (),sample (),sample (),sample (),sample (),sample (),sample (),sample (),sample (),sample (),sample (),sample (),sample (),sample (),sample (),sample (),sample (),sample (),sample (),sample (),sample (),sample (),sample (),sample (),sample (),sample (),sample (),sample (),sample (),sample (),sample (),sample ()average (),average (),average (),average (),average (),average (),windvector (),windvector (),windvector (),windvector (),average (),average (),average (),average (),average (),sample (),sample (),average (),average (),average (),average (),average (),average (),average (),average (),average (),average (),average (),average (),average (),average (),sample (),sample (),sample (),sample (),sample (),sample (),sample (),sample (),sample (),sample (),sample (),sample (),sample (),sample (),sample (),sample ()
2020-08-08 21:00:00,965768400,NAN,NAN,NAN,5.038,320.4,586.4,704.1,-140.1,-15.55,-0.629,2.449,1.801,8.62,-182.6,-183.2,-183.8,-184.1,-184.4,-184.5,-184.5,-184.0,-0.567,-0.55,68.72,0.0,1900.0,6933.25213,4922.16237,1120,0.68,101.2,13.26,-126.2,-3.0,87.4,5.231,312.7,0.0
2020-08-08 22:00:00,965772000,874,-2.883,84.8,4.726,308.7,556.7,655.5,-136.3,-17.88,-0.41,2.453,1.804,13.38,-1.58,-3.42,-5.272,-6.368,-7.227,-7.637,-7.675,-7.102,-1.617,-1.633,206.8,0.0,2000.0,6933.252,4922.16003,1124,1.03,37.74,13.38,-126.3,-3.4,84.3,3.688,299.6,0.0
2020-08-08 23:00:00,965775600,873,-4.117,81.5,5.185,284.8,448.2,501.8,-142.0,-17.49,-2.515,2.456,1.809,13.38,-1.502,-3.42,-5.28,-6.433,-7.23,-7.727,-7.74,-7.36,-1.633,-1.6,206.4,0.0,2100.0,6933.25277,4922.16047,1125,1.18,17.09,13.45,-126.7,-4.8,78.5,5.553,285.8,0.0
2020-08-09 00:00:00,965779200,873,-4.933,79.05,6.348,291.1,302.8,330.5,-130.6,-14.7,-4.244,2.46,1.804,13.38,-1.483,-3.42,-5.28,-6.458,-7.23,-7.73,-7.74,-7.36,-1.667,-1.617,206.7,0.0,2200.01,6933.25208,4922.1602,1119,0.82,17.07,13.48,-127.0,-4.8,79.0,7.291,297.3,0.0
2020-08-09 01:00:00,965782800,873,-5.317,79.15,6.469,290.0,192.6,206.1,-120.8,-14.67,-4.938,2.463,1.806,13.37,-1.52,-3.42,-5.28,-6.442,-7.23,-7.725,-7.74,-7.36,-1.7,-1.533,206.7,0.0,2300.0,6933.25201,4922.15975,1120,0.82,17.04,13.45,-127.2,-5.7,80.0,5.723,295.7,0.0
2020-08-09 02:00:00,965786400,873,-5.483,81.1,5.742,298.3,95.9,98.1,-103.4,-12.89,-5.552,2.458,1.799,13.37,-1.543,-3.42,-5.28,-6.412,-7.23,-7.717,-7.74,-7.36,-1.7,-1.533,206.7,0.0,0.0,6933.25195,4922.16267,1124,0.88,17.02,13.43,-127.2,-5.3,83.0,5.712,303.4,0.0
2020-08-09 03:00:00,965790000,873,-4.95,82.1,5.846,299.0,24.25,26.23,-65.62,-8.95,-5.142,2.453,1.798,13.38,-1.55,-3.42,-5.28,-6.387,-7.23,-7.725,-7.735,-7.36,-1.617,-1.533,206.6,0.0,100.01,6933.2521,4922.16232,1124,0.77,73.66,13.4,-127.3,-4.8,81.2,5.386,287.5,0.0
2020-08-09 04:00:00,965793600,873,-5.983,82.9,4.674,288.3,-1.306,3.301,-83.6,-11.5,-6.219,2.456,1.802,13.38,-1.557,-3.42,-5.275,-6.388,-7.23,-7.682,-7.735,-7.36,-1.617,-1.483,207.0,0.0,200.0,6933.25183,4922.16069,1118,0.76,74.88,13.39,-127.2,-5.7,83.9,4.915,298.2,0.0
2020-08-09 05:00:00,965797200,873,-5.733,85.8,4.452,293.9,-1.433,2.703,-61.55,-8.0,-6.038,2.454,1.8,13.38,-1.587,-3.42,-5.275,-6.36,-7.23,-7.697,-7.73,-7.36,-1.617,-1.5,206.8,0.0,300.0,6933.24982,4922.15917,1117,1.24,71.99,13.38,-127.3,-5.5,86.0,6.107,302.1,0.0
2020-08-09 06:00:00,965800800,873,-5.4,87.3,5.555,304.4,-1.349,1.917,-51.27,-6.216,-5.672,2.451,1.798,13.38,-1.61,-3.42,-5.265,-6.36,-7.23,-7.7,-7.735,-7.36,-1.633,-1.517,206.7,0.0,400.0,6933.25114,4922.1618,1115,0.72,71.59,13.38,-127.2,-5.1,87.1,5.734,309.9,0.0
2020-08-09 07:00:00,965804400,873,-4.917,89.4,5.37,316.7,-0.092,1.757,-25.54,-3.014,-5.081,2.452,1.799,13.38,-1.61,-3.42,-5.255,-6.365,-7.23,-7.67,-7.74,-7.36,-1.6,-1.517,206.9,0.0,500.0,6933.25232,4922.16039,1124,0.75,71.18,13.37,-127.2,-4.7,92.6,4.994,313.2,0.0
2020-08-09 08:00:00,965808000,873,-4.65,92.4,5.267,311.9,2.863,4.992,-18.92,-1.896,-4.668,2.448,1.781,13.38,-1.617,-3.42,-5.25,-6.36,-7.23,-7.668,-7.74,-7.36,-1.65,-1.5,206.7,0.0,600.01,6933.25052,4922.16067,1121,1.01,70.28,13.36,-127.3,-4.9,91.9,5.805,305.1,0.0
2020-08-09 09:00:00,965811600,873,-4.583,90.4,7.089,308.0,16.5,24.2,-8.36,-0.679,-4.599,2.453,1.765,13.38,-1.627,-3.42,-5.23,-6.365,-7.23,-7.657,-7.74,-7.36,-1.65,-1.533,206.8,0.0,700.0,6933.25343,4922.16119,1124,0.87,69.48,13.35,-127.1,-4.4,90.4,7.254,313.2,0.0
2020-08-09 10:00:00,965815200,873,-4.183,91.3,7.005,317.9,53.85,74.34,-7.184,-0.463,-4.042,2.452,1.795,13.38,-1.627,-3.42,-5.195,-6.36,-7.23,-7.653,-7.74,-7.36,-1.683,-1.5,206.4,0.0,800.0,6933.25133,4922.16194,1119,0.81,68.99,13.36,-126.9,-4.0,89.1,6.066,317.5,0.0
2020-08-09 11:00:00,965818800,873,-3.967,88.8,5.917,317.0,99.5,136.7,-14.85,-2.529,-3.628,2.446,1.79,13.39,-1.623,-3.42,-5.163,-6.36,-7.23,-7.643,-7.735,-7.36,-1.683,-1.5,206.6,0.0,900.0,6933.25171,4922.16093,1121,0.71,68.66,13.36,-126.8,-4.0,89.9,6.522,317.4,0.0
2020-08-09 12:00:00,965822400,873,-3.717,90.9,6.749,312.8,182.6,249.1,-21.18,-3.299,-3.071,2.449,1.795,13.39,-1.627,-3.42,-5.192,-6.36,-7.23,-7.63,-7.74,-7.36,-1.65,-1.5,205.8,0.0,1000.0,6933.25211,4922.16342,1122,0.75,69.63,13.38,-127.0,-3.8,90.2,7.457,313.4,0.0
2020-08-09 13:00:00,965826000,873,-3.633,87.8,7.268,306.3,390.8,529.8,-53.95,-6.994,-2.395,2.447,1.789,13.39,-1.63,-3.42,-5.167,-6.36,-7.23,-7.643,-7.74,-7.36,-1.633,-1.5,206.4,0.0,1100.01,6933.25163,4922.16178,1120,0.76,70.41,13.4,-127.0,-3.6,86.2,6.778,300.3,0.0
2020-08-09 14:00:00,965829600,873,-3.433,83.4,6.827,303.0,514.8,716.6,-108.1,-12.45,-1.906,2.443,1.794,13.38,-1.63,-3.42,-5.172,-6.36,-7.23,-7.643,-7.74,-7.36,-1.633,-1.517,206.9,0.0,1200.0,6933.25218,4922.16164,1122,0.92,69.01,13.44,-127.4,-3.1,82.7,7.446,308.9,0.0
2020-08-09 14:39:20,965831960,873,-3.3,77.8,28.1,306.3,706.7,972,-126.2,-11.96,-1.427,0.0,1.794,13.37,-1.63,-3.42,-5.16,-6.36,-7.23,-7.66,-7.74,-7.36,-1.7,-1.5,206.8,0.0,1239.22,6933.2519,4922.16329,1122,0.93,70.91,13.45,-127.5,-3.3,77.8,28.1,306.3,0.0
2020-08-09 15:00:00,965833200,872,-3.283,79.3,7.076,300.0,607.7,842,-121.2,-13.78,-1.449,2.449,1.794,13.37,-1.633,-3.42,-5.163,-6.36,-7.23,-7.62,-7.725,-7.36,-1.6,-1.533,206.6,0.0,1300.0,6933.25205,4922.16313,1128,1.06,70.03,13.45,-127.8,-3.3,78.4,6.924,302.8,0.0
2020-08-09 16:00:00,965836800,872,-3.1,79.5,7.461,298.5,710.7,978,-133.1,-13.35,-1.144,2.439,1.783,13.37,-1.627,-3.42,-5.16,-6.36,-7.23,-7.63,-7.74,-7.36,-1.65,-1.533,206.7,0.0,1400.0,6933.25215,4922.1641,1123,0.9,69.76,13.47,-127.9,-2.7,79.4,7.312,298.4,0.0
2020-08-09 17:00:00,965840400,872,-2.217,80.3,7.404,304.4,600.8,819,-136.7,-15.79,-0.318,2.426,1.788,13.37,-1.63,-3.42,-5.16,-6.36,-7.23,-7.625,-7.725,-7.36,-1.65,-1.533,206.8,0.0,1500.0,6933.25272,4922.16164,1122,0.97,69.08,13.48,-128.1,-2.1,80.8,7.478,303.1,0.0
2020-08-09 18:00:00,965844000,872,-1.517,81.3,6.107,310.8,708.0,947,-136.2,-17.29,0.944,2.425,1.787,13.37,-1.63,-3.42,-5.16,-6.36,-7.23,-7.615,-7.73,-7.36,-1.633,-1.533,206.6,0.0,1600.01,6933.25111,4922.1605,1132,0.84,69.67,13.53,-128.6,-1.8,83.3,5.45,303.6,0.0
2020-08-09 19:00:00,965847600,871,-1.15,83.8,5.62,312.4,672.7,872,-98.0,-14.54,1.012,2.423,1.783,13.36,-1.63,-3.42,-5.16,-6.36,-7.23,-7.625,-7.74,-7.36,-1.6,-1.567,206.8,0.0,1700.0,6933.25181,4922.16027,1125,0.75,69.22,13.65,-128.8,-0.9,83.7,5.569,312.5,0.0
2020-08-09 20:00:00,965851200,871,-0.683,83.7,4.882,307.7,739.7,932,-141.4,-20.19,2.319,2.425,1.783,13.37,-1.63,-3.42,-5.16,-6.36,-7.23,-7.637,-7.74,-7.36,-1.617,-1.533,206.9,0.0,1800.0,6933.25004,4922.16191,1109,1.55,71.03,13.71,-129.2,-0.6,83.9,4.517,308.0,0.0
2020-08-09 21:00:00,965854800,871,-0.733,83.0,4.755,303.3,589.8,731.8,-136.5,-20.85,1.898,2.422,1.784,13.36,-1.63,-3.42,-5.16,-6.36,-7.23,-7.625,-7.74,-7.36,-1.617,-1.5,206.6,0.0,1900.0,6933.25183,4922.16216,1125,0.79,70.1,13.7,-129.6,-0.7,82.2,4.695,300.9,0.0
2020-08-09 22:00:00,965858400,870,-0.333,82.2,5.361,307.5,522.3,646.5,-88.6,-15.57,1.742,2.421,1.781,13.36,-1.63,-3.42,-5.16,-6.36,-7.23,-7.62,-7.735,-7.36,-1.65,-1.483,206.4,0.0,2000.0,6933.25267,4922.15859,1128,0.84,71.1,13.69,-129.9,-0.4,82.7,5.242,314.3,0.0
2020-08-09 23:00:00,965862000,870,-0.533,86.5,4.246,339.2,280.9,368.4,-41.69,-10.52,1.075,2.421,1.783,13.35,-1.63,-3.42,-5.16,-6.36,-7.23,-7.615,-7.712,-7.36,-1.683,-1.5,206.3,0.0,2100.01,6933.25297,4922.15798,1123,1.17,68.7,13.66,-129.7,-0.9,89.6,3.426,0.102,0.0
2020-08-10 00:00:00,965865600,870,-1.75,90.4,2.31,307.5,174.6,219.0,-93.8,-21.41,-0.509,2.431,1.79,13.35,-1.63,-3.42,-5.16,-6.36,-7.218,-7.615,-7.693,-7.36,-1.6,-1.467,206.5,0.0,2200.0,6933.2529,4922.15928,1126,0.88,69.43,13.66,-130.2,-3.2,84.5,3.197,269.6,0.0
2020-08-10 01:00:00,965869200,870,-2.483,85.7,4.676,301.2,81.5,108.7,-74.7,-11.16,-2.403,2.423,1.786,13.35,-1.63,-3.42,-5.16,-6.36,-7.173,-7.61,-7.68,-7.36,-1.633,-1.433,206.5,0.0,2300.0,6933.25207,4922.15876,1119,1.03,70.39,13.63,-130.2,-2.3,88.1,5.385,315.4,0.0
2020-08-10 02:00:00,965872800,870,-2.5,94.8,4.667,345.5,40.13,54.64,-14.19,-1.837,-2.349,2.417,1.781,13.35,-1.63,-3.42,-5.16,-6.36,-7.157,-7.61,-7.668,-7.36,-1.633,-1.417,206.6,0.0,0.0,6933.25294,4922.16,1121,1.13,68.57,13.61,-129.9,-2.3,95.4,3.625,327.7,0.0
2020-08-10 03:00:00,965876400,870,-2.5,95.3,3.977,346.9,8.7,12.54,-10.99,-1.09,-2.44,2.413,1.776,13.35,-1.633,-3.42,-5.16,-6.36,-7.14,-7.61,-7.677,-7.36,-1.65,-1.433,206.3,0.0,100.0,6933.25154,4922.16147,1132,0.66,68.75,13.6,-129.9,-2.6,95.3,3.72,338.5,0.0
2020-08-10 04:00:00,965880000,870,-2.95,95.2,3.906,339.0,0.503,1.73,-20.17,-2.224,-2.953,2.415,1.771,13.36,-1.662,-3.42,-5.16,-6.36,-7.133,-7.61,-7.658,-7.36,-1.65,-1.417,206.5,0.0,200.01,6933.2525,4922.16234,1129,0.83,68.18,13.59,-129.6,-3.1,95.1,3.288,336.9,0.0
2020-08-10 05:00:00,965883600,870,-3.067,95.2,3.1,349.2,0.247,0.75,-6.405,-0.658,-3.091,2.413,1.772,13.36,-1.705,-3.42,-5.16,-6.36,-7.123,-7.61,-7.663,-7.36,-1.633,-1.4,206.5,0.0,300.0,6933.2506,4922.16038,1116,0.95,68.24,13.58,-129.6,-3.0,95.3,2.92,353.6,0.0
2020-08-10 06:00:00,965887200,870,-3.117,95.2,2.094,351.2,-0.298,0.131,-6.021,-0.566,-3.098,2.416,1.776,13.36,-1.723,-3.42,-5.16,-6.36,-7.123,-7.61,-7.667,-7.36,-1.65,-1.4,206.5,0.0,400.0,6933.2503,4922.15887,1120,0.96,68.55,13.58,-129.5,-3.3,95.0,1.65,340.4,0.0
2020-08-10 07:00:00,965890800,871,-3.467,94.9,1.31,2.38,-0.481,0.767,-10.24,-2.384,-3.54,2.417,1.775,13.36,-1.733,-3.42,-5.16,-6.36,-7.117,-7.61,-7.635,-7.36,-1.633,-1.4,206.9,0.0,500.0,6933.25084,4922.15769,1121,0.92,68.05,13.57,-129.4,-3.6,94.9,0.882,12.97,0.0
2020-08-10 08:00:00,965894400,871,-3.667,94.9,0.556,12.96,2.093,4.807,-4.474,-4.006,-3.955,2.415,1.773,13.36,-1.74,-3.42,-5.16,-6.36,-7.11,-7.61,-7.635,-7.36,-1.683,-1.4,206.9,0.0,600.0,6933.25093,4922.15622,1125,1.4,70.56,13.56,-129.1,-3.7,94.9,0.318,13.13,0.0
2020-08-10 09:00:00,965898000,871,-3.7,94.9,0.696,43.97,11.78,18.71,-0.43,-3.159,-3.826,2.417,1.798,13.36,-1.74,-3.42,-5.16,-6.36,-7.11,-7.61,-7.64,-7.36,-1.633,-1.4,207.1,0.0,700.01,6933.25188,4922.15999,1120,0.8,69.82,13.57,-128.7,-3.8,94.8,1.176,67.58,0.0
2020-08-10 10:00:00,965901600,871,-3.967,94.6,1.62,79.48,37.05,54.69,-0.254,-1.817,-3.7,2.415,1.765,13.37,-1.74,-3.42,-5.16,-6.36,-7.11,-7.61,-7.63,-7.36,-1.617,-1.4,206.9,0.0,800.0,6933.25254,4922.15705,1116,1.03,70.89,13.56,-128.5,-4.0,94.6,1.56,83.3,0.0
2020-08-10 11:00:00,965905200,872,-3.767,94.7,2.791,85.2,90.3,130.4,-1.964,-2.227,-3.251,2.407,1.759,13.37,-1.74,-3.42,-5.16,-6.36,-7.11,-7.61,-7.63,-7.36,-1.65,-1.4,206.6,0.0,900.0,6933.25271,4922.15909,1128,0.78,71.01,13.57,-128.2,-3.7,94.7,3.571,95.0,0.0
2020-08-10 12:00:00,965908800,872,-3.467,94.7,2.957,86.7,197.3,278.6,-14.7,-4.492,-2.302,2.396,1.762,13.38,-1.74,-3.42,-5.16,-6.36,-7.11,-7.61,-7.64,-7.36,-1.65,-1.4,206.5,0.0,1000.0,6933.25052,4922.16553,1118,0.82,69.67,13.58,-127.6,-3.3,94.8,3.162,77.66,0.0
2020-08-10 13:00:00,965912400,873,-3.517,94.4,4.454,76.43,301.7,424.8,-22.68,-6.697,-1.759,2.397,1.742,13.39,-1.74,-3.42,-5.16,-6.36,-7.11,-7.61,-7.63,-7.36,-1.667,-1.4,206.5,0.0,1100.0,6933.25139,4922.16137,1120,0.92,68.11,13.6,-126.9,-3.6,94.4,3.657,77.92,0.0
2020-08-10 14:00:00,965916000,873,-3.35,94.5,3.603,63.17,342.2,485.5,-19.91,-7.445,-1.366,2.398,1.737,13.4,-1.74,-3.42,-5.16,-6.36,-7.11,-7.61,-7.63,-7.36,-1.65,-1.4,206.9,0.0,1200.01,6933.25179,4922.15472,1129,2.4,70.73,13.63,-126.5,-3.3,94.4,4.696,56.5,0.0
2020-08-10 15:00:00,965919600,874,-3.267,94.2,4.431,58.76,493.7,689.6,-21.38,-9.03,-0.714,2.385,1.741,13.41,-1.74,-3.42,-5.16,-6.36,-7.11,-7.61,-7.63,-7.36,-1.683,-1.4,207.0,0.0,1300.0,6933.25192,4922.16429,1124,0.85,68.7,13.64,-125.9,-3.5,94.0,5.176,49.42,0.0
2020-08-10 16:00:00,965923200,874,-3.383,94.1,4.937,49.79,575.3,795.1,-24.47,-6.685,-0.877,2.383,1.739,13.41,-1.74,-3.42,-5.16,-6.36,-7.11,-7.61,-7.62,-7.36,-1.617,-1.417,207.1,0.0,1400.0,6933.25016,4922.1633,1117,0.91,69.85,13.71,-125.6,-3.1,94.0,4.905,37.87,0.0
2020-08-10 17:00:00,965926800,875,-3.45,93.5,4.121,50.32,705.3,965,-42.03,-10.71,0.401,2.392,1.746,13.42,-1.74,-3.42,-5.16,-6.36,-7.11,-7.61,-7.63,-7.36,-1.65,-1.433,206.5,0.0,1500.0,6933.25199,4922.16434,1125,1.23,69.88,13.73,-125.1,-3.4,93.6,3.768,66.48,0.0
2020-08-10 18:00:00,965930400,875,-3.433,93.3,3.232,34.38,714.3,950,-43.24,-14.91,1.285,2.388,1.749,13.42,-1.74,-3.42,-5.16,-6.36,-7.11,-7.61,-7.63,-7.36,-1.65,-1.4,206.5,0.0,1600.0,6933.25217,4922.16148,1129,0.83,70.81,13.74,-124.8,-3.2,93.1,2.765,23.86,0.0
2020-08-10 19:00:00,965934000,875,-3.183,93.2,2.805,28.64,620.6,829,-42.2,-18.01,1.807,2.389,1.749,13.42,-1.74,-3.42,-5.16,-6.36,-7.11,-7.61,-7.625,-7.36,-1.617,-1.417,206.7,0.0,1700.01,6933.25203,4922.16352,1123,1.21,69.23,13.77,-124.5,-3.1,93.2,2.953,31.84,0.0
2020-08-10 20:00:00,965937600,876,-3.167,92.6,2.828,28.29,696.2,894,-94.5,-20.91,1.992,2.393,1.752,13.42,-1.74,-3.42,-5.16,-6.36,-7.11,-7.61,-7.62,-7.36,-1.65,-1.417,206.8,0.0,1800.0,6933.25129,4922.16412,1119,1.24,72.23,13.87,-124.5,-3.3,91.9,2.724,33.16,0.0
2020-08-10 21:00:00,965941200,876,-3.417,92.1,2.537,14.6,534.7,683.7,-97.3,-23.69,1.448,2.395,1.756,13.42,-1.76,-3.42,-5.16,-6.36,-7.11,-7.61,-7.63,-7.36,-1.65,-1.417,206.4,0.0,1900.0,6933.25247,4922.16209,1124,0.72,70.07,13.8,-124.1,-3.9,93.1,2.891,21.82,0.0
2020-08-10 22:00:00,965944800,876,-3.9,92.7,3.152,34.4,305.9,397.0,-59.76,-13.36,-1.034,2.396,1.757,13.41,-1.817,-3.42,-5.16,-6.36,-7.11,-7.61,-7.615,-7.36,-1.617,-1.417,207.0,0.0,2000.0,6933.25193,4922.15896,1127,0.93,70.54,13.79,-123.9,-4.1,92.3,3.462,33.06,0.0
2020-08-10 23:00:00,965948400,876,-3.833,94.4,2.643,17.47,240.0,323.5,-18.46,-5.292,-1.792,2.395,1.756,13.42,-1.833,-3.42,-5.16,-6.36,-7.11,-7.61,-7.615,-7.36,-1.667,-1.367,206.5,0.0,2100.0,6933.25241,4922.15766,1122,1.37,71.87,13.77,-123.6,-3.8,94.7,1.773,0.576,0.0
2020-08-11 00:00:00,965952000,876,-3.717,94.9,1.837,342.5,177.1,239.8,-16.1,-4.385,-1.92,2.396,1.755,13.42,-1.843,-3.42,-5.16,-6.36,-7.11,-7.61,-7.61,-7.36,-1.65,-1.383,206.7,0.0,2200.01,6933.25197,4922.15822,1131,0.85,69.14,13.77,-123.8,-3.7,94.8,1.908,312.9,0.0
2020-08-11 01:00:00,965955600,876,-3.783,94.6,1.73,14.49,86.8,119.5,-14.17,-2.797,-2.573,2.397,1.756,13.42,-1.85,-3.42,-5.16,-6.353,-7.11,-7.61,-7.61,-7.36,-1.617,-1.35,206.5,0.0,2300.0,6933.25231,4922.15891,1123,1.09,68.85,13.74,-123.6,-3.8,94.3,1.005,349.1,0.0
2020-08-11 02:00:00,965959200,876,-3.767,91.5,0.496,353.4,32.72,46.27,-14.55,-2.375,-2.907,2.396,1.756,13.42,-1.85,-3.42,-5.16,-6.335,-7.11,-7.61,-7.61,-7.36,-1.617,-1.383,206.6,0.0,0.0,6933.25254,4922.15952,1122,1.05,71.77,13.73,-123.6,-3.8,89.2,1.376,37.74,0.0
2020-08-11 03:00:00,965962800,876,-3.783,90.5,0.457,16.42,9.07,14.01,-15.61,-1.446,-3.507,2.398,1.757,13.42,-1.85,-3.42,-5.16,-6.3,-7.11,-7.61,-7.61,-7.36,-1.6,-1.4,207.1,0.0,100.0,6933.2518,4922.16095,1129,0.61,68.51,13.72,-123.5,-3.8,90.4,0.777,21.6,0.0
2020-08-11 04:00:00,965966400,877,-4.033,92.8,1.65,349.4,0.434,1.96,-16.11,-1.105,-4.025,2.4,1.758,13.42,-1.85,-3.42,-5.16,-6.285,-7.11,-7.61,-7.61,-7.36,-1.617,-1.35,207.0,0.0,200.0,6933.2516,4922.16006,1121,0.76,71.23,13.71,-123.5,-4.2,94.3,2.535,0.101,0.0
2020-08-11 05:00:00,965970000,877,-4.583,94.3,2.84,341.1,-1.092,0.493,-29.82,-2.732,-4.655,2.402,1.761,13.42,-1.85,-3.42,-5.16,-6.258,-7.11,-7.61,-7.61,-7.36,-1.617,-1.333,206.8,0.0,300.01,6933.25187,4922.15892,1118,0.91,69.81,13.7,-123.3,-4.6,93.8,3.349,328.0,0.0
2020-08-11 06:00:00,965973600,877,-4.55,92.0,3.332,321.9,-0.48,0.794,-16.78,-1.306,-4.636,2.4,1.761,13.43,-1.85,-3.42,-5.16,-6.255,-7.11,-7.61,-7.61,-7.36,-1.633,-1.35,206.8,0.0,400.0,6933.25156,4922.1609,1118,0.88,71.28,13.69,-123.2,-4.6,90.6,3.38,319.7,0.0
2020-08-11 07:00:00,965977200,877,-4.817,90.7,3.571,324.0,-0.651,0.61,-21.85,-2.466,-4.823,2.402,1.762,13.42,-1.85,-3.42,-5.16,-6.24,-7.11,-7.61,-7.61,-7.36,-1.65,-1.3,206.8,0.0,500.0,6933.25142,4922.15952,1126,0.95,68.26,13.68,-123.1,-4.9,90.5,3.78,342.7,0.0
2020-08-11 08:00:00,965980800,877,-4.667,90.1,3.573,324.3,1.782,3.867,-16.52,-1.869,-4.72,2.4,1.761,13.43,-1.85,-3.42,-5.16,-6.24,-7.11,-7.61,-7.61,-7.36,-1.6,-1.333,206.9,0.0,600.0,6933.24956,4922.16293,1119,1.13,69.88,13.68,-122.7,-4.7,90.5,3.768,321.8,0.0
2020-08-11 09:00:00,965984400,877,-4.4,89.7,4.372,321.4,13.7,20.19,-17.38,-2.293,-4.405,2.4,1.76,13.43,-1.85,-3.42,-5.16,-6.24,-7.11,-7.61,-7.61,-7.36,-1.6,-1.3,207.0,0.0,700.0,6933.25062,4922.16133,1124,0.76,68.73,13.68,-122.4,-4.4,89.9,4.648,315.8,0.0
2020-08-11 10:00:00,965988000,878,-4.467,88.4,4.799,310.9,39.22,54.66,-27.4,-4.12,-4.317,2.401,1.761,13.44,-1.85,-3.42,-5.16,-6.245,-7.11,-7.61,-7.61,-7.36,-1.617,-1.367,206.7,0.0,800.01,6933.25246,4922.15833,1120,1.2,69.62,13.67,-122.1,-4.4,85.6,4.831,294.5,0.0
2020-08-11 11:00:00,965991600,878,-5.317,83.5,5.107,303.0,125.1,183.7,-107.8,-15.29,-5.015,2.411,1.77,13.44,-1.85,-3.42,-5.16,-6.24,-7.11,-7.61,-7.61,-7.36,-1.633,-1.333,206.5,0.0,900.0,6933.25359,4922.15855,1131,1.03,72.13,13.68,-121.6,-5.8,82.4,5.352,299.5,0.0
2020-08-11 12:00:00,965995200,878,-5.767,81.5,6.415,303.4,288.3,428.5,-127.0,-14.52,-5.069,2.402,1.771,13.44,-1.85,-3.42,-5.16,-6.24,-7.11,-7.61,-7.61,-7.36,-1.617,-1.317,206.4,0.0,1000.0,6933.25105,4922.16209,1117,0.89,71.85,13.7,-121.5,-5.3,81.3,6.715,306.4,0.0
2020-08-11 13:00:00,965998800,879,-5.183,80.6,6.049,308.0,377.2,547.7,-128.9,-15.44,-3.936,2.391,1.772,13.45,-1.85,-3.42,-5.16,-6.24,-7.11,-7.61,-7.61,-7.36,-1.65,-1.367,207.0,0.0,1100.0,6933.25181,4922.1618,1118,0.95,69.78,13.7,-121.5,-4.9,81.0,6.61,302.4,0.0
2020-08-11 14:00:00,966002400,879,-4.35,77.72,7.61,306.8,485.9,680.6,-133.4,-12.99,-3.078,2.417,1.788,13.45,-1.85,-3.42,-5.16,-6.24,-7.11,-7.61,-7.61,-7.36,-1.65,-1.417,206.0,0.0,1200.0,6933.25162,4922.15973,1128,1.06,71.73,13.72,-121.6,-4.5,75.8,7.851,294.5,0.0
2020-08-11 15:00:00,966006000,878,-4.65,75.92,7.988,301.9,645.8,881,-144.7,-12.0,-2.98,2.411,1.786,13.45,-1.85,-3.42,-5.16,-6.24,-7.11,-7.61,-7.61,-7.36,-1.617,-1.4,207.0,0.0,1300.01,6933.25174,4922.16212,1127,1.0,69.88,13.74,-121.8,-4.6,75.9,7.601,300.6,0.0
2020-08-11 16:00:00,966009600,878,-4.483,75.63,9.27,300.3,727.8,964,-145.5,-10.35,-2.839,2.444,1.785,13.45,-1.85,-3.42,-5.16,-6.24,-7.11,-7.61,-7.61,-7.36,-1.633,-1.433,206.5,0.0,1400.0,6933.2516,4922.16353,1122,1.3,72.15,13.77,-122.0,-4.4,75.2,9.59,298.5,0.0
2020-08-11 17:00:00,966013200,878,-4.133,75.15,9.49,300.6,775.0,1010,-146.6,-10.06,-2.48,2.442,1.784,13.45,-1.85,-3.42,-5.16,-6.24,-7.11,-7.61,-7.61,-7.36,-1.65,-1.45,206.1,0.0,1500.0,6933.2513,4922.16431,1117,1.01,72.23,13.81,-122.5,-4.0,74.8,10.21,297.5,0.0
2020-08-11 18:00:00,966016800,877,-4.0,75.32,10.55,296.4,794.7,1015,-147.8,-9.47,-2.41,2.441,1.785,13.44,-1.85,-3.42,-5.16,-6.24,-7.11,-7.61,-7.61,-7.36,-1.667,-1.433,206.4,0.0,1600.0,6933.2519,4922.16,1128,0.9,71.06,13.88,-123.0,-3.9,75.7,10.77,296.3,0.0
2020-08-11 19:00:00,966020400,877,-3.8,75.45,10.3,290.4,791.8,995,-150.0,-10.21,-2.252,2.434,1.783,13.44,-1.85,-3.42,-5.15,-6.24,-7.11,-7.61,-7.61,-7.36,-1.617,-1.483,206.8,0.0,1700.0,6933.25267,4922.16042,1124,0.79,71.19,13.95,-123.5,-3.8,75.9,9.87,291.1,0.0
2020-08-11 20:00:00,966024000,876,-3.717,75.15,9.61,289.3,742.8,914,-151.7,-11.11,-2.162,2.441,1.783,13.43,-1.85,-3.42,-5.157,-6.24,-7.11,-7.61,-7.61,-7.36,-1.633,-1.417,206.8,0.0,1800.01,6933.25157,4922.16136,1124,0.91,73.1,14.0,-123.9,-3.7,74.9,8.67,287.7,0.0
2020-08-11 21:00:00,966027600,876,-3.85,75.62,8.25,286.7,663.8,795.9,-150.6,-13.03,-2.285,2.442,1.784,13.42,-1.867,-3.42,-5.153,-6.24,-7.11,-7.61,-7.61,-7.36,-1.65,-1.383,206.6,0.0,1900.0,6933.25199,4922.16218,1124,0.72,71.88,14.03,-124.9,-3.9,75.7,8.65,285.0,0.0
2020-08-11 22:00:00,966031200,875,-3.967,75.1,8.78,283.8,560.3,656.3,-146.2,-13.44,-2.795,2.443,1.784,13.4,-1.913,-3.42,-5.153,-6.24,-7.11,-7.61,-7.61,-7.36,-1.65,-1.4,206.2,0.0,2000.0,6933.2528,4922.15827,1126,0.84,73.74,14.05,-125.8,-4.1,74.5,8.8,282.7,0.0
2020-08-11 23:00:00,966034800,874,-4.3,74.73,8.75,281.6,436.8,500.7,-140.4,-13.94,-3.436,2.415,1.786,13.39,-1.94,-3.42,-5.14,-6.24,-7.11,-7.61,-7.61,-7.36,-1.633,-1.417,206.5,0.0,2100.0,6933.25182,4922.15917,1124,1.33,73.96,14.05,-126.6,-4.6,75.1,9.12,281.4,0.0
2020-08-12 00:00:00,966038400,873,-4.8,74.48,9.69,283.9,309.5,338.7,-135.5,-12.96,-4.353,2.448,1.788,13.38,-1.93,-3.42,-5.112,-6.24,-7.11,-7.61,-7.61,-7.36,-1.617,-1.45,207.3,0.0,2200.0,6933.25163,4922.16046,1125,0.76,73.07,14.04,-127.6,-5.0,74.7,9.64,283.4,0.0
2020-08-12 01:00:00,966042000,872,-5.417,74.48,9.95,283.5,185.8,187.8,-133.7,-13.15,-5.312,2.453,1.791,13.37,-1.95,-3.42,-5.1,-6.24,-7.11,-7.61,-7.61,-7.36,-1.65,-1.517,207.1,0.0,2300.01,6933.25345,4922.15919,1126,1.06,72.22,14.0,-128.7,-5.9,74.8,9.73,284.1,0.0
2020-08-12 02:00:00,966045600,871,-6.367,73.05,9.8,280.5,81.3,72.2,-132.5,-13.44,-6.488,2.456,1.792,13.36,-1.96,-3.42,-5.053,-6.24,-7.11,-7.61,-7.61,-7.36,-1.6,-1.467,207.9,0.0,0.0,6933.25162,4922.16409,1129,1.04,71.21,13.95,-129.7,-6.6,72.4,10.57,283.7,0.0
2020-08-12 04:00:00,966052800,869,-7.367,71.55,11.74,284.8,-2.279,3.264,-125.2,-10.73,-7.611,2.457,1.796,13.35,-1.96,-3.42,-5.04,-6.24,-7.075,-7.573,-7.61,-7.36,-1.75,-1.433,205.9,0.0,200.0,6933.25174,4922.16168,1126,1.08,72.68,13.88,-131.9,-7.3,72.5,12.6,280.0,0.0
2020-08-12 05:00:00,966056400,867,-7.333,74.17,13.37,282.8,-2.637,1.317,-102.9,-8.17,-7.534,2.459,1.796,13.33,-1.96,-3.42,-5.062,-6.24,-7.073,-7.568,-7.61,-7.36,-1.6,-1.45,206.7,0.0,300.0,6933.25198,4922.16449,1121,1.03,71.68,13.87,-133.2,-7.4,76.3,13.23,274.2,0.0
2020-08-12 06:00:00,966060000,866,-6.25,77.52,13.29,279.4,-0.818,1.437,-46.22,-4.856,-6.4,2.45,1.791,13.32,-1.96,-3.42,-5.045,-6.24,-7.078,-7.588,-7.61,-7.36,-1.667,-1.433,204.9,0.0,400.01,6933.25139,4922.16374,1118,0.87,71.09,13.86,-134.9,-5.8,80.0,13.55,278.9,0.0
2020-08-12 07:00:00,966063600,865,-4.883,80.0,13.78,283.2,-0.655,1.705,-47.95,-4.898,-5.029,2.444,1.786,13.31,-1.96,-3.42,-5.045,-6.24,-7.073,-7.587,-7.61,-7.36,-1.683,-1.45,206.3,0.0,500.0,6933.24955,4922.16263,1117,1.02,72.31,13.84,-135.7,-4.2,78.9,13.44,275.4,0.0
2020-08-12 08:00:00,966067200,864,-3.55,80.7,12.18,285.8,3.663,7.392,-52.14,-5.988,-3.699,2.436,1.78,13.3,-1.96,-3.42,-5.04,-6.24,-7.05,-7.578,-7.61,-7.36,-1.633,-1.433,205.4,0.0,600.0,6933.25224,4922.1568,1133,1.16,72.63,13.84,-136.5,-2.8,82.4,11.87,286.6,0.0
2020-08-12 09:00:00,966070800,863,-2.45,83.0,13.57,290.7,20.61,29.31,-56.28,-6.449,-2.501,2.439,1.779,13.3,-2.007,-3.42,-5.04,-6.24,-7.062,-7.593,-7.61,-7.36,-1.6,-1.533,206.6,0.0,700.0,6933.25125,4922.16335,1124,0.8,70.55,13.83,-137.4,-2.6,84.0,14.77,289.4,0.0
2020-08-12 10:00:00,966074400,862,-2.517,85.1,15.47,292.3,52.23,71.38,-40.61,-4.354,-2.496,2.436,1.779,13.29,-2.04,-3.42,-5.045,-6.24,-7.027,-7.55,-7.61,-7.36,-1.617,-1.5,207.3,0.0,800.0,6933.25008,4922.1641,1125,0.97,72.75,13.83,-138.9,-2.3,86.0,15.97,299.0,0.0
2020-08-12 11:00:00,966078000,861,-1.9,86.3,16.16,302.0,96.0,129.8,-24.01,-3.833,-1.788,2.43,1.777,13.29,-2.07,-3.42,-5.04,-6.24,-7.025,-7.563,-7.61,-7.36,-1.817,-1.367,204.2,0.0,900.01,6933.25199,4922.16047,1127,0.81,72.22,13.84,-139.1,-1.4,85.6,16.13,303.2,0.0
2020-08-12 12:00:00,966081600,861,-1.2,87.0,15.13,304.9,142.4,196.6,-4.667,-3.795,-0.945,2.428,1.778,13.28,-2.07,-3.42,-5.045,-6.24,-7.02,-7.552,-7.61,-7.36,-1.75,-1.5,204.7,0.0,1000.0,6933.25148,4922.16233,1117,0.94,70.12,13.84,-139.1,-1.0,87.4,14.62,313.1,0.0
2020-08-12 13:00:00,966085200,861,-1.017,93.0,11.4,311.3,195.2,268.8,-5.772,-1.901,-0.638,2.427,1.776,13.29,-2.07,-3.42,-5.04,-6.24,-7.008,-7.555,-7.61,-7.36,-1.767,-1.367,205.1,0.0,1100.0,6933.25005,4922.16003,1107,0.98,71.4,13.85,-138.9,-1.0,95.4,9.02,319.4,0.0
2020-08-12 14:00:00,966088800,861,-1.083,96.1,7.661,348.4,274.6,379.2,-7.316,-2.653,-0.26,2.428,1.778,13.29,-2.07,-3.42,-5.04,-6.24,-7.008,-7.56,-7.61,-7.36,-1.667,-1.45,206.2,0.0,1200.0,6933.25142,4922.16029,1122,0.79,71.16,13.87,-138.4,-1.6,95.9,7.218,11.13,0.0
2020-08-12 15:00:00,966092400,862,-2.467,94.8,8.23,18.52,372.0,519.6,-11.06,-3.599,-1.326,2.44,1.783,13.29,-2.073,-3.42,-5.04,-6.24,-6.993,-7.528,-7.61,-7.36,-1.6,-1.417,206.7,0.0,1300.0,6933.25258,4922.16339,1130,1.02,73.86,13.89,-137.1,-3.0,94.1,8.21,23.21,0.0
2020-08-12 16:00:00,966096000,864,-3.267,94.2,7.859,12.14,398.6,561.7,-10.9,-3.462,-2.059,2.442,1.784,13.3,-2.153,-3.42,-5.04,-6.24,-6.98,-7.515,-7.61,-7.36,-1.6,-1.417,206.8,0.0,1400.01,6933.25274,4922.16625,1128,0.91,72.57,13.92,-135.3,-3.2,94.1,7.784,3.711,0.0
2020-08-12 17:00:00,966099600,866,-2.967,94.1,7.483,5.598,541.1,750.6,-15.78,-4.628,-1.35,2.429,1.653,13.33,-2.175,-3.42,-5.04,-6.24,-6.98,-7.54,-7.61,-7.36,-1.6,-1.45,207.0,0.0,1500.0,6933.25173,4922.16493,1121,0.87,71.77,13.95,-133.5,-2.7,94.4,6.707,352.6,0.0
2020-08-12 18:00:00,966103200,867,-2.367,94.7,6.907,346.5,538.4,738.7,-16.65,-5.058,-0.607,2.409,1.668,13.34,-2.18,-3.42,-5.04,-6.24,-6.985,-7.522,-7.61,-7.36,-1.617,-1.4,205.9,0.0,1600.0,6933.25116,4922.16241,1127,0.83,74.02,13.96,-132.5,-2.3,95.0,6.807,235.7,0.0
2020-08-12 19:00:00,966106800,868,-1.9,95.5,7.308,349.0,513.5,699.0,-14.26,-4.403,-0.345,2.426,1.664,13.35,-2.18,-3.42,-5.04,-6.24,-6.98,-7.525,-7.61,-7.36,-1.717,-1.5,205.8,0.0,1700.0,6933.25146,4922.16399,1129,0.89,73.62,13.98,-131.6,-1.6,95.8,7.458,353.2,0.0
2020-08-12 20:00:00,966110400,869,-1.383,96.1,7.29,359.7,461.6,633.8,-13.27,-4.599,0.085,2.414,1.672,13.36,-2.18,-3.42,-5.04,-6.24,-6.98,-7.507,-7.61,-7.36,-1.6,-1.433,206.8,0.0,1800.0,6933.25182,4922.16461,1121,0.9,72.37,13.97,-130.4,-1.2,96.3,7.362,5.196,0.0
2020-08-12 21:00:00,966114000,870,-1.05,96.6,8.17,14.43,415.3,568.4,-11.52,-3.922,0.244,2.386,1.675,13.37,-2.183,-3.42,-5.04,-6.24,-6.98,-7.5,-7.61,-7.36,-1.617,-1.417,206.7,0.0,1900.01,6933.25213,4922.16077,1125,0.98,73.34,13.98,-129.4,-1.1,96.8,7.244,353.6,0.0
2020-08-12 22:00:00,966117600,871,-0.983,97.0,8.39,14.36,271.5,382.1,-9.0,-3.351,0.005,2.383,1.676,13.37,-2.193,-3.42,-5.04,-6.24,-6.98,-7.493,-7.61,-7.36,-1.667,-1.4,206.7,0.0,2000.0,6933.25223,4922.16285,1120,0.8,72.59,13.95,-128.5,-1.1,96.8,9.01,13.16,0.0
2020-08-12 23:00:00,966121200,872,-1.317,97.0,8.02,18.09,227.2,313.8,-9.6,-1.919,-0.524,2.379,1.677,13.38,-2.24,-3.42,-5.04,-6.24,-6.98,-7.493,-7.61,-7.36,-1.717,-1.4,206.0,0.0,2100.0,6933.25094,4922.16104,1122,1.13,73.7,13.95,-127.6,-1.3,97.1,7.139,0.712,0.0
2020-08-13 00:00:00,966124800,873,-1.4,96.8,8.71,17.51,229.3,319.5,-11.31,-2.3,-0.624,2.387,1.676,13.39,-2.27,-3.42,-5.04,-6.24,-6.98,-7.497,-7.61,-7.36,-1.517,-1.4,206.6,0.0,2200.0,6933.25242,4922.16133,1123,1.03,17.19,13.95,-126.8,-1.6,96.8,8.9,23.06,0.0
2020-08-13 01:00:00,966128400,874,-1.817,97.0,7.945,21.18,76.92,107.5,-13.93,-1.017,-1.529,2.39,1.677,13.4,-2.275,-3.42,-5.04,-6.24,-6.98,-7.49,-7.61,-7.36,-1.7,-1.417,205.8,0.0,2300.0,6933.25102,4922.16168,1118,0.82,17.14,13.93,-126.2,-2.2,96.7,8.81,24.24,0.0
2020-08-13 02:00:00,966132000,874,-2.3,96.8,7.972,19.61,28.34,40.06,-13.8,-0.793,-2.214,2.384,1.677,13.41,-2.29,-3.42,-5.04,-6.24,-6.98,-7.49,-7.61,-7.36,-1.633,-1.733,208.1,0.0,0.01,6933.25078,4922.16452,1125,1.01,106.6,13.91,-125.5,-2.3,97.0,7.469,1.06,0.0
2020-08-13 03:00:00,966135600,875,-2.3,97.0,7.081,0.133,4.827,6.874,-3.594,0.094,-2.253,2.383,1.678,13.42,-2.29,-3.42,-5.04,-6.24,-6.98,-7.49,-7.61,-7.36,-1.633,-1.433,206.0,0.0,100.0,6933.25161,4922.1636,1129,0.64,106.3,13.9,-124.5,-2.5,96.9,6.984,19.05,0.0
2020-08-13 04:00:00,966139200,876,-2.55,96.8,6.509,356.7,0.479,0.679,-3.254,0.195,-2.538,2.375,1.679,13.43,-2.29,-3.42,-5.04,-6.228,-6.98,-7.49,-7.61,-7.36,-1.6,-1.367,206.6,0.0,200.0,6933.25045,4922.15957,1115,0.76,17.25,13.87,-124.0,-2.7,96.7,6.95,2.112,0.0
2020-08-13 05:00:00,966142800,876,-2.75,96.7,6.607,1.923,-0.064,0.072,-3.262,0.113,-2.713,2.363,1.68,13.43,-2.29,-3.42,-5.04,-6.197,-6.98,-7.49,-7.61,-7.36,-1.683,-1.433,205.3,0.0,300.0,6933.25054,4922.16441,1112,2.52,17.19,13.86,-123.5,-2.8,96.6,7.07,6.028,0.0
2020-08-13 06:00:00,966146400,877,-3.033,96.5,6.405,10.43,-0.232,-0.176,-4.013,0.05,-3.001,2.336,1.678,13.44,-2.29,-3.42,-5.04,-6.18,-6.98,-7.49,-7.61,-7.36,-1.6,-1.467,206.6,0.0,400.0,6933.25098,4922.16244,1119,0.8,17.2,13.85,-122.7,-3.1,96.4,6.301,18.4,0.0
2020-08-13 07:00:00,966150000,878,-3.333,96.2,5.302,4.701,-0.053,0.212,-3.919,0.13,-3.332,2.315,1.672,13.44,-2.29,-3.42,-5.04,-6.162,-6.98,-7.49,-7.61,-7.36,-1.683,-1.417,205.7,0.0,500.01,6933.25135,4922.16238,1126,1.7,17.15,13.87,-122.1,-3.3,96.3,4.708,0.151,0.0
2020-08-13 08:00:00,966153600,878,-3.2,96.4,4.458,9.53,1.778,2.542,-2.255,0.143,-3.177,2.335,1.669,13.45,-2.29,-3.42,-5.04,-6.147,-6.98,-7.49,-7.61,-7.36,-1.617,-1.4,206.3,0.0,600.0,6933.25089,4922.16215,1125,1.34,17.23,13.86,-121.3,-2.7,96.7,5.044,45.06,0.0
2020-08-13 09:00:00,966157200,879,-2.4,97.0,5.45,50.79,11.21,15.45,-1.382,-0.034,-2.34,2.324,1.658,13.46,-2.29,-3.42,-5.04,-6.135,-6.98,-7.49,-7.61,-7.36,-1.633,-1.383,205.9,0.0,700.0,6933.25165,4922.16277,1129,0.86,17.17,13.85,-120.3,-2.2,97.2,5.873,55.91,0.0
2020-08-13 10:00:00,966160800,880,-2.267,97.1,5.659,68.39,54.87,76.47,-1.693,-0.369,-2.143,2.297,1.66,13.47,-2.29,-3.42,-5.04,-6.14,-6.98,-7.49,-7.61,-7.36,-1.95,-1.35,206.5,0.0,800.0,6933.2513,4922.16297,1123,0.88,17.19,13.85,-119.4,-2.2,97.1,4.643,54.45,0.0
2020-08-13 11:00:00,966164400,881,-2.183,97.1,4.941,57.9,109.2,151.6,-2.333,-0.66,-1.876,2.287,1.658,13.48,-2.29,-3.42,-5.04,-6.123,-6.98,-7.49,-7.61,-7.36,-1.733,-1.417,204.8,0.0,900.0,6933.25195,4922.16492,1130,2.06,17.24,13.85,-118.6,-2.1,97.1,4.508,58.72,0.0
2020-08-13 12:00:00,966168000,882,-1.983,97.1,4.745,63.4,185.3,258.0,-6.999,-2.303,-1.398,2.289,1.645,13.49,-2.29,-3.42,-5.04,-6.12,-6.98,-7.49,-7.61,-7.36,-1.6,-1.383,205.8,0.0,1000.01,6933.24999,4922.16293,1116,1.5,17.19,13.84,-117.9,-2.1,97.0,4.127,63.46,0.0
2020-08-13 13:00:00,966171600,882,-2.033,97.0,5.83,64.77,247.2,348.6,-8.6,-3.251,-1.216,2.294,1.633,13.5,-2.29,-3.42,-5.04,-6.123,-6.98,-7.49,-7.61,-7.36,-1.683,-1.417,206.2,0.0,1100.0,6933.25149,4922.16419,1129,1.07,17.11,13.84,-117.3,-1.9,97.0,6.157,66.66,0.0
2020-08-13 14:00:00,966175200,883,-1.95,96.9,6.94,54.97,371.4,516.7,-13.74,-4.045,-0.836,2.3,1.633,13.5,-2.29,-3.42,-5.04,-6.12,-6.98,-7.49,-7.61,-7.36,-1.683,-1.567,207.5,0.0,1200.0,6933.25149,4922.16579,1124,0.79,17.21,13.83,-116.9,-1.9,96.9,6.414,59.43,0.0
2020-08-13 15:00:00,966178800,883,-1.983,96.9,6.709,56.99,443.0,613.1,-18.23,-5.364,-0.535,2.307,1.639,13.51,-2.29,-3.42,-5.04,-6.12,-6.98,-7.49,-7.61,-7.36,-1.533,-1.417,206.3,0.0,1300.0,6933.25103,4922.16414,1123,1.0,17.19,13.82,-116.6,-2.4,96.5,6.896,59.61,0.0
2020-08-13 16:00:00,966182400,884,-2.033,96.7,5.774,41.06,512.1,707.6,-21.74,-6.547,-0.137,2.295,1.637,13.51,-2.29,-3.42,-5.04,-6.12,-6.98,-7.49,-7.61,-7.36,-1.667,-1.417,206.2,0.0,1400.0,6933.24987,4922.16218,1118,1.29,17.23,13.83,-116.4,-1.8,96.6,5.65,33.59,0.0
2020-08-13 17:00:00,966186000,884,-1.967,96.3,6.24,26.98,539.1,748.3,-19.42,-8.01,0.367,2.316,1.64,13.51,-2.29,-3.42,-5.04,-6.12,-6.98,-7.49,-7.61,-7.36,-1.683,-1.383,206.1,0.0,1500.01,6933.25254,4922.16384,1131,1.1,17.17,13.82,-116.3,-2.1,96.3,5.998,25.74,0.0
2020-08-13 18:00:00,966189600,884,-2.183,96.4,5.661,7.047,535.7,745.5,-21.16,-8.02,0.26,2.31,1.64,13.52,-2.29,-3.42,-5.04,-6.12,-6.98,-7.49,-7.61,-7.36,-1.683,-1.383,206.1,0.0,1600.0,6933.25118,4922.16196,1124,0.86,17.21,13.82,-116.1,-2.2,96.5,5.434,1.188,0.0
2020-08-13 19:00:00,966193200,884,-2.4,96.3,4.775,351.6,477.4,667.9,-20.95,-9.01,0.257,2.309,1.642,13.52,-2.29,-3.42,-5.04,-6.12,-6.98,-7.49,-7.61,-7.36,-1.683,-1.367,205.8,0.0,1700.0,6933.2518,4922.16418,1125,1.07,17.25,13.82,-116.0,-2.5,96.3,4.47,346.3,0.0
2020-08-13 20:00:00,966196800,884,-2.583,96.3,4.677,336.9,412.0,580.5,-21.9,-8.65,-0.142,2.304,1.642,13.51,-2.29,-3.42,-5.04,-6.12,-6.98,-7.49,-7.61,-7.36,-1.65,-1.417,205.9,0.0,1800.0,6933.25092,4922.16201,1129,1.08,17.18,13.81,-115.9,-2.6,96.3,4.72,333.9,0.0
2020-08-13 21:00:00,966200400,884,-2.45,96.4,5.013,321.1,450.2,633.2,-42.37,-9.3,0.142,2.301,1.642,13.52,-2.29,-3.42,-5.04,-6.12,-6.98,-7.49,-7.61,-7.36,-1.6,-1.4,205.8,0.0,1900.0,6933.25148,4922.16407,1120,0.92,17.16,13.81,-115.9,-2.5,96.6,5.109,320.4,0.0
2020-08-13 22:00:00,966204000,884,-2.617,96.3,5.046,311.9,351.9,553.3,-66.24,-10.93,-0.377,2.302,1.644,13.51,-2.313,-3.42,-5.04,-6.12,-6.98,-7.49,-7.61,-7.36,-1.65,-1.417,206.4,0.0,2000.01,6933.25137,4922.16312,1121,0.79,17.12,13.81,-116.0,-3.0,96.0,4.617,293.6,0.0
2020-08-13 23:00:00,966207600,884,-3.55,95.6,5.355,296.9,206.0,343.5,-84.4,-11.91,-2.115,2.305,1.646,13.51,-2.323,-3.42,-5.04,-6.12,-6.98,-7.49,-7.61,-7.36,-1.65,-1.4,206.3,0.0,2100.0,6933.25055,4922.16364,1121,1.1,17.11,13.81,-116.3,-3.8,95.5,5.544,302.2,0.0
2020-08-14 00:00:00,966211200,884,-4.15,94.6,5.4,293.0,132.1,192.6,-62.36,-9.84,-3.151,2.309,1.649,13.51,-2.353,-3.42,-5.04,-6.12,-6.98,-7.49,-7.61,-7.36,-1.633,-1.417,206.6,0.0,2200.0,6933.25145,4922.16305,1124,0.86,17.08,13.8,-116.5,-4.4,93.8,5.344,288.9,0.0
2020-08-14 01:00:00,966214800,883,-4.2,93.1,6.465,290.8,74.45,108.7,-50.89,-7.645,-3.573,2.309,1.649,13.5,-2.363,-3.42,-5.04,-6.12,-6.98,-7.49,-7.61,-7.36,-1.65,-1.383,206.6,0.0,2300.0,6933.25043,4922.16378,1122,0.81,17.07,13.8,-116.7,-4.4,92.4,6.366,285.0,0.0
2020-08-14 02:00:00,966218400,883,-4.283,91.8,6.904,290.7,21.43,35.48,-62.55,-8.7,-4.006,2.31,1.65,13.5,-2.37,-3.42,-5.04,-6.12,-6.98,-7.49,-7.61,-7.36,-1.633,-1.4,207.3,0.0,0.0,6933.2511,4922.16356,1118,0.81,17.09,13.79,-117.0,-4.3,90.5,6.942,295.8,0.0
2020-08-14 03:00:00,966222000,883,-4.417,86.6,7.023,290.3,0.995,6.883,-64.4,-9.21,-4.206,2.322,1.652,13.5,-2.37,-3.42,-5.04,-6.12,-6.98,-7.49,-7.61,-7.36,-1.633,-1.417,206.6,0.0,100.01,6933.25156,4922.16348,1126,0.71,17.08,13.79,-117.3,-4.7,85.2,7.239,291.1,0.0
2020-08-14 04:00:00,966225600,882,-5.2,83.6,7.566,294.8,-3.878,1.489,-101.3,-11.84,-5.225,2.315,1.658,13.5,-2.375,-3.42,-5.04,-6.12,-6.98,-7.49,-7.602,-7.36,-1.6,-1.4,207.8,0.0,200.0,6933.25051,4922.16514,1121,0.87,17.05,13.78,-117.8,-5.3,81.8,8.32,301.5,0.0
2020-08-14 05:00:00,966229200,882,-6.133,81.2,7.939,293.6,-4.634,0.903,-110.8,-12.52,-6.242,2.32,1.665,13.49,-2.375,-3.42,-5.04,-6.12,-6.98,-7.49,-7.607,-7.36,-1.633,-1.4,207.1,0.0,300.0,6933.25317,4922.16419,1131,2.15,17.01,13.78,-118.0,-6.5,80.6,7.702,285.0,0.0
2020-08-14 06:00:00,966232800,882,-7.183,81.3,7.586,283.5,-4.082,1.27,-103.0,-11.49,-7.402,2.324,1.665,13.49,-2.38,-3.42,-5.037,-6.12,-6.977,-7.49,-7.607,-7.36,-1.683,-1.383,206.7,0.0,400.0,6933.25154,4922.16439,1125,0.74,106.3,13.77,-118.2,-7.7,81.4,8.12,278.7,0.0
2020-08-14 07:00:00,966236400,882,-7.617,81.9,8.13,280.1,-2.181,1.706,-58.94,-6.566,-7.775,2.324,1.664,13.49,-2.375,-3.42,-5.04,-6.12,-6.98,-7.49,-7.61,-7.36,-1.717,-1.383,206.2,0.0,500.0,6933.25159,4922.16435,1125,1.08,106.1,13.77,-118.6,-7.3,82.0,8.7,281.7,0.0
2020-08-14 08:00:00,966240000,881,-6.417,81.7,8.97,279.2,-0.809,3.263,-49.27,-5.837,-6.543,2.323,1.665,13.49,-2.395,-3.42,-5.04,-6.12,-6.98,-7.49,-7.61,-7.36,-1.7,-1.4,205.3,0.0,600.01,6933.2513,4922.16288,1122,0.98,105.9,13.76,-118.8,-6.3,81.8,8.95,276.2,0.0
2020-08-14 09:00:00,966243600,881,-6.517,81.7,9.7,284.0,8.38,17.15,-73.42,-7.499,-6.604,2.327,1.67,13.48,-2.39,-3.42,-5.04,-6.12,-6.98,-7.49,-7.607,-7.36,-1.617,-1.417,205.9,0.0,700.0,6933.25152,4922.16344,1124,0.83,106.0,13.76,-119.0,-6.6,81.9,9.86,285.2,0.0
2020-08-14 10:00:00,966247200,881,-6.417,81.5,9.98,284.7,35.7,56.06,-85.3,-7.895,-6.465,2.335,1.682,13.48,-2.385,-3.42,-5.04,-6.12,-6.98,-7.49,-7.603,-7.36,-1.717,-1.4,205.0,0.0,800.0,6933.25161,4922.1636,1124,0.91,105.8,13.76,-119.4,-6.5,81.1,10.36,280.4,0.0
2020-08-14 11:00:00,966250800,881,-6.383,79.95,10.61,288.1,116.2,167.8,-98.8,-9.43,-6.268,2.339,1.689,13.48,-2.395,-3.42,-5.04,-6.12,-6.98,-7.49,-7.607,-7.36,-1.7,-1.35,206.6,0.0,900.0,6933.25085,4922.16359,1124,1.21,105.7,13.75,-119.2,-6.3,79.5,10.81,286.9,0.0
2020-08-14 12:00:00,966254400,881,-6.767,80.5,10.17,281.8,217.7,307.2,-78.81,-7.651,-6.387,2.351,1.691,13.48,-2.395,-3.42,-5.037,-6.12,-6.98,-7.49,-7.595,-7.36,-1.667,-1.433,204.8,0.0,1000.0,6933.2512,4922.16248,1124,0.79,17.17,13.75,-119.3,-6.2,80.0,10.31,284.0,0.0
2020-08-14 13:00:00,966258000,881,-6.25,80.5,10.67,286.1,309.3,434.5,-70.63,-7.545,-5.65,2.355,1.691,13.48,-2.395,-3.42,-5.03,-6.12,-6.98,-7.49,-7.593,-7.36,-1.65,-1.383,205.0,0.0,1100.01,6933.25018,4922.1632,1121,0.89,17.18,13.75,-119.3,-6.3,80.1,10.52,283.1,0.0
2020-08-14 14:00:00,966261600,881,-5.883,78.45,10.83,285.7,587.8,812,-88.2,-7.867,-4.768,2.357,1.693,13.48,-2.4,-3.42,-5.04,-6.12,-6.98,-7.49,-7.598,-7.36,-1.683,-1.433,206.4,0.0,1200.0,6933.25094,4922.16293,1123,0.81,17.2,13.75,-119.6,-5.7,78.0,10.97,282.3,0.0
2020-08-14 15:00:00,966265200,880,-5.333,77.92,10.73,284.3,648.1,889,-89.8,-8.71,-4.008,2.353,1.691,13.48,-2.4,-3.42,-5.033,-6.12,-6.98,-7.49,-7.587,-7.36,-1.65,-1.467,206.8,0.0,1300.0,6933.25042,4922.16471,1127,1.13,70.24,13.74,-119.7,-4.9,77.3,10.8,287.2,0.0
2020-08-14 16:00:00,966268800,880,-4.65,77.28,10.36,282.9,718.6,969,-114.0,-9.96,-3.17,2.356,1.679,13.49,-2.395,-3.42,-5.023,-6.12,-6.98,-7.49,-7.598,-7.36,-1.633,-1.417,207.3,0.0,1400.0,6933.24988,4922.16304,1118,0.95,72.54,13.73,-119.7,-4.7,77.4,10.59,289.1,0.0
2020-08-14 17:00:00,966272400,880,-4.567,77.1,10.31,282.6,761.1,1027,-131.1,-10.36,-2.995,2.357,1.688,13.48,-2.4,-3.42,-5.013,-6.12,-6.965,-7.49,-7.595,-7.36,-1.633,-1.45,206.7,0.0,1500.0,6933.25093,4922.16405,1122,1.43,72.15,13.73,-119.9,-4.6,76.7,10.44,276.6,0.0
2020-08-14 18:00:00,966276000,880,-4.95,76.87,10.24,284.8,755.3,1032,-130.7,-9.78,-3.339,2.357,1.696,13.48,-2.4,-3.42,-5.018,-6.12,-6.95,-7.49,-7.588,-7.36,-1.65,-1.45,206.0,0.0,1600.01,6933.25158,4922.16331,1125,0.97,72.95,13.73,-120.2,-4.7,75.6,9.96,283.6,0.0
2020-08-14 19:00:00,966279600,880,-4.267,74.85,9.2,285.1,699.3,986,-134.3,-11.55,-2.623,2.355,1.692,13.49,-2.4,-3.42,-5.013,-6.12,-6.973,-7.49,-7.578,-7.36,-1.7,-1.483,205.8,0.0,1700.0,6933.25119,4922.16202,1121,1.1,72.76,13.74,-120.0,-4.0,74.0,8.3,285.8,0.0
2020-08-14 20:00:00,966283200,880,-3.75,73.85,8.35,286.0,596.0,901,-136.9,-13.46,-2.107,2.355,1.691,13.49,-2.4,-3.42,-5.022,-6.12,-6.973,-7.49,-7.61,-7.36,-1.667,-1.467,206.1,0.0,1800.0,6933.25073,4922.16245,1124,1.21,71.26,13.75,-120.0,-3.6,73.8,7.594,284.0,0.0
2020-08-14 21:00:00,966286800,880,-3.667,74.43,7.014,282.1,478.4,782.7,-137.2,-15.69,-1.958,2.355,1.687,13.49,-2.4,-3.42,-5.025,-6.12,-6.953,-7.49,-7.597,-7.36,-1.633,-1.4,206.8,0.0,1900.0,6933.25144,4922.1636,1122,0.92,72.34,13.76,-120.1,-3.8,74.7,6.48,283.0,0.0
2020-08-14 22:00:00,966290400,880,-4.033,74.93,6.578,280.3,404.2,638.0,-135.5,-16.58,-2.551,2.359,1.689,13.48,-2.4,-3.42,-5.022,-6.12,-6.962,-7.49,-7.595,-7.36,-1.683,-1.4,206.1,0.0,2000.0,6933.25088,4922.16405,1121,0.96,71.86,13.82,-120.1,-4.4,75.4,6.867,274.0,0.0
2020-08-14 23:00:00,966294000,880,-4.767,74.12,7.189,280.0,376.2,480.7,-133.5,-16.1,-3.818,2.364,1.693,13.47,-2.4,-3.42,-4.982,-6.12,-6.913,-7.49,-7.6,-7.36,-1.633,-1.417,206.3,0.0,2100.01,6933.25038,4922.16427,1120,1.13,72.15,13.86,-120.0,-5.1,73.2,6.913,280.5,0.0
2020-08-15 00:00:00,966297600,880,-5.733,72.48,7.237,281.5,283.4,316.1,-129.6,-16.17,-5.2,2.368,1.697,13.47,-2.4,-3.42,-4.948,-6.12,-6.875,-7.49,-7.557,-7.36,-1.65,-1.383,206.9,0.0,2200.0,6933.25196,4922.16,1122,1.56,71.51,13.87,-120.1,-6.2,72.0,7.568,280.0,0.0
2020-08-15 01:00:00,966301200,880,-6.633,71.03,8.41,275.8,162.9,166.1,-123.6,-14.3,-6.557,2.37,1.7,13.46,-2.4,-3.42,-4.925,-6.12,-6.863,-7.49,-7.52,-7.36,-1.65,-1.4,206.8,0.0,2300.0,6933.25287,4922.15981,1128,1.84,73.72,13.85,-120.3,-7.0,70.7,8.47,277.5,0.0
2020-08-15 02:00:00,966304800,880,-8.2,72.47,7.387,273.0,62.77,53.49,-117.6,-14.11,-8.34,2.378,1.706,13.46,-2.4,-3.42,-4.92,-6.12,-6.86,-7.49,-7.51,-7.36,-1.667,-1.367,206.4,0.0,0.0,6933.25155,4922.1629,1114,1.0,72.59,13.83,-120.3,-8.8,72.5,7.486,280.0,0.0
2020-08-15 03:00:00,966308400,879,-9.1,73.22,8.77,271.8,5.829,8.99,-114.1,-11.55,-9.37,2.381,1.708,13.46,-2.4,-3.42,-4.92,-6.12,-6.86,-7.49,-7.508,-7.36,-1.617,-1.383,206.4,0.0,100.0,6933.25135,4922.16283,1119,0.8,72.94,13.82,-120.7,-9.6,73.6,9.24,275.0,0.0
2020-08-15 04:00:00,966312000,879,-9.85,74.48,8.28,274.4,-2.906,2.508,-110.2,-10.36,-10.11,2.384,1.71,13.46,-2.4,-3.42,-4.925,-6.117,-6.86,-7.485,-7.5,-7.36,-1.633,-1.367,207.2,0.0,200.01,6933.25001,4922.16407,1114,1.29,72.46,13.8,-121.3,-9.9,74.2,9.11,271.8,0.0
2020-08-15 05:00:00,966315600,879,-10.27,74.85,8.53,265.9,-3.523,1.266,-108.5,-10.09,-10.59,2.385,1.71,13.45,-2.4,-3.42,-4.92,-6.113,-6.86,-7.49,-7.493,-7.36,-1.583,-1.367,207.6,0.0,300.0,6933.25242,4922.16405,1127,0.9,74.04,13.79,-121.6,-10.4,75.7,8.67,263.8,0.0
2020-08-15 06:00:00,966319200,878,-10.42,75.38,8.71,264.5,-3.101,1.745,-105.8,-9.52,-10.74,2.385,1.711,13.45,-2.4,-3.42,-4.92,-6.12,-6.86,-7.49,-7.5,-7.36,-1.667,-1.333,206.3,0.0,400.0,6933.25152,4922.1638,1121,0.78,73.41,13.79,-122.0,-10.6,75.5,8.78,265.4,0.0
2020-08-15 07:00:00,966322800,878,-10.78,75.53,9.0,267.8,-3.205,1.492,-106.3,-9.44,-11.05,2.388,1.712,13.45,-2.403,-3.42,-4.92,-6.087,-6.86,-7.475,-7.497,-7.36,-1.6,-1.4,207.5,0.0,500.0,6933.2494,4922.16431,1117,1.11,74.33,13.78,-122.5,-11.0,75.4,8.93,274.7,0.0
2020-08-15 08:00:00,966326400,877,-11.15,74.52,8.89,272.5,-2.268,2.838,-105.4,-9.37,-11.37,2.395,1.714,13.44,-2.43,-3.42,-4.92,-6.087,-6.86,-7.458,-7.497,-7.36,-1.7,-1.383,205.6,0.0,600.0,6933.25054,4922.16508,1120,1.05,74.28,13.78,-122.9,-11.6,74.9,9.19,277.7,0.0
2020-08-15 09:00:00,966330000,877,-11.62,73.95,9.26,269.1,6.663,15.18,-102.2,-8.77,-11.83,2.402,1.715,13.43,-2.467,-3.42,-4.92,-6.055,-6.86,-7.44,-7.493,-7.36,-1.633,-1.4,206.8,0.0,700.01,6933.25015,4922.16414,1119,2.07,74.15,13.77,-123.5,-12.0,74.6,9.04,270.0,0.0
2020-08-15 10:00:00,966333600,876,-11.63,74.37,9.63,270.5,48.29,73.78,-86.3,-7.293,-11.84,2.399,1.712,13.43,-2.48,-3.42,-4.92,-6.023,-6.86,-7.453,-7.49,-7.36,-1.617,-1.4,207.0,0.0,800.0,6933.25143,4922.16339,1122,0.94,73.85,13.76,-123.8,-10.9,74.0,9.71,268.7,0.0
2020-08-15 11:00:00,966337200,876,-10.37,73.75,8.84,273.9,107.0,154.3,-87.3,-8.62,-10.4,2.396,1.711,13.43,-2.485,-3.42,-4.92,-6.03,-6.86,-7.463,-7.49,-7.36,-1.633,-1.383,206.6,0.0,900.0,6933.25133,4922.16441,1125,1.32,72.65,13.77,-124.2,-10.3,72.9,8.59,270.9,0.0
2020-08-15 12:00:00,966340800,876,-9.97,72.15,8.89,272.1,308.4,437.9,-86.4,-8.57,-9.4,2.396,1.709,13.43,-2.495,-3.42,-4.92,-6.018,-6.86,-7.44,-7.493,-7.36,-1.633,-1.35,207.1,0.0,1000.0,6933.25131,4922.1636,1124,0.74,72.84,13.77,-124.4,-9.9,72.8,9.24,274.7,0.0
2020-08-15 13:00:00,966344400,875,-10.07,72.93,9.17,278.7,428.8,595.9,-76.41,-6.86,-9.19,2.394,1.708,13.43,-2.505,-3.42,-4.92,-6.02,-6.86,-7.438,-7.493,-7.36,-1.6,-1.433,206.5,0.0,1100.0,6933.25206,4922.16453,1126,0.79,72.58,13.8,-124.6,-9.7,72.7,8.57,270.9,0.0
2020-08-15 14:00:00,966348000,875,-9.62,73.12,8.82,280.4,537.5,749.8,-104.0,-8.39,-8.39,2.393,1.709,13.43,-2.51,-3.42,-4.92,-6.007,-6.86,-7.415,-7.49,-7.36,-1.617,-1.4,206.9,0.0,1200.01,6933.2512,4922.1629,1123,0.79,73.15,13.8,-124.8,-9.5,73.7,9.12,280.8,0.0
2020-08-15 15:00:00,966351600,875,-8.92,72.93,9.2,286.9,655.1,900,-112.7,-8.26,-7.515,2.392,1.704,13.43,-2.51,-3.425,-4.92,-6.007,-6.86,-7.413,-7.49,-7.36,-1.6,-1.417,206.6,0.0,1300.0,6933.25088,4922.16297,1127,1.16,73.33,13.82,-125.0,-8.4,72.3,9.02,290.3,0.0
2020-08-15 16:00:00,966355200,875,-7.917,71.72,8.79,292.5,705.9,952,-123.3,-9.42,-6.326,2.389,1.704,13.43,-2.51,-3.42,-4.92,-6.003,-6.86,-7.415,-7.493,-7.36,-1.6,-1.433,206.7,0.0,1400.0,6933.25103,4922.16194,1123,1.32,71.69,13.83,-124.8,-7.6,71.8,8.29,295.9,0.0
2020-08-15 17:00:00,966358800,875,-7.233,73.12,8.2,292.2,748.5,995,-128.7,-10.02,-5.393,2.387,1.702,13.43,-2.51,-3.43,-4.92,-6.003,-6.86,-7.402,-7.49,-7.36,-1.633,-1.417,206.5,0.0,1500.0,6933.2513,4922.16507,1127,0.92,72.95,13.86,-124.8,-7.0,73.8,8.24,293.5,0.0
2020-08-15 18:00:00,966362400,875,-6.65,73.97,8.04,294.5,767.1,1000,-130.8,-10.34,-4.795,2.406,1.7,13.43,-2.51,-3.435,-4.92,-6.0,-6.86,-7.41,-7.497,-7.36,-1.6,-1.433,206.6,0.0,1600.0,6933.25095,4922.16442,1119,0.82,74.12,13.93,-124.5,-6.3,74.7,7.812,290.2,0.0
2020-08-15 19:00:00,966366000,876,-5.967,75.17,7.582,300.8,754.5,961,-133.0,-11.75,-4.001,2.399,1.696,13.44,-2.51,-3.463,-4.92,-6.012,-6.86,-7.458,-7.493,-7.36,-1.583,-1.433,207.0,0.0,1700.01,6933.25108,4922.16298,1123,0.75,71.97,14.03,-124.2,-5.7,76.4,6.754,302.1,0.0
2020-08-15 20:00:00,966369600,876,-5.417,76.3,6.607,309.6,703.7,879,-135.8,-14.02,-3.283,2.392,1.695,13.45,-2.51,-3.493,-4.92,-6.003,-6.86,-7.45,-7.5,-7.36,-1.6,-1.417,206.4,0.0,1800.0,6933.25079,4922.16191,1127,1.29,73.25,14.11,-123.7,-5.3,78.0,6.151,307.0,0.0
2020-08-15 21:00:00,966373200,877,-5.083,79.67,6.028,306.3,626.5,765.4,-135.3,-15.23,-3.07,2.389,1.694,13.45,-2.547,-3.505,-4.92,-6.008,-6.86,-7.458,-7.5,-7.36,-1.6,-1.417,206.1,0.0,1900.0,6933.2508,4922.16237,1121,0.92,72.61,14.17,-123.1,-5.0,81.0,5.947,303.5,0.0
2020-08-15 22:00:00,966376800,877,-5.15,82.0,5.737,310.2,519.6,621.6,-133.4,-15.91,-3.364,2.394,1.695,13.46,-2.6,-3.54,-4.92,-6.0,-6.86,-7.463,-7.5,-7.36,-1.6,-1.4,206.1,0.0,2000.0,6933.25146,4922.16342,1125,0.82,74.12,14.19,-122.4,-5.4,82.1,5.692,309.5,0.0
2020-08-15 23:00:00,966380400,878,-5.567,82.4,5.758,304.9,397.2,459.5,-128.9,-15.5,-4.345,2.397,1.697,13.46,-2.62,-3.54,-4.92,-6.003,-6.86,-7.405,-7.497,-7.36,-1.617,-1.4,206.6,0.0,2100.0,6933.25076,4922.16327,1123,1.12,73.41,14.18,-122.0,-5.9,81.4,5.131,302.9,0.0
2020-08-16 00:00:00,966384000,878,-6.35,79.68,5.461,296.4,264.7,291.4,-123.0,-15.98,-5.677,2.399,1.699,13.45,-2.62,-3.535,-4.92,-6.0,-6.86,-7.4,-7.49,-7.36,-1.617,-1.4,206.8,0.0,2200.01,6933.25143,4922.16419,1124,1.26,73.63,14.16,-121.4,-6.7,78.4,5.597,297.3,0.0
2020-08-16 01:00:00,966387600,879,-7.733,77.48,5.502,288.9,145.8,148.2,-114.6,-15.5,-7.474,2.407,1.706,13.45,-2.62,-3.517,-4.92,-6.0,-6.86,-7.363,-7.49,-7.36,-1.617,-1.383,206.5,0.0,2300.0,6933.24968,4922.16128,1117,1.25,74.78,14.11,-121.2,-8.2,76.5,6.132,282.3,0.0
2020-08-16 02:00:00,966391200,879,-8.82,75.43,5.756,289.5,48.24,44.95,-107.3,-14.4,-8.96,2.414,1.709,13.46,-2.62,-3.517,-4.92,-6.0,-6.86,-7.363,-7.49,-7.36,-1.617,-1.367,206.9,0.0,0.0,6933.24941,4922.1622,1103,0.73,74.15,14.05,-120.8,-9.2,74.9,5.45,284.2,0.0
2020-08-16 03:00:00,966394800,879,-9.7,74.42,5.747,279.4,3.744,8.39,-103.0,-13.54,-10.05,2.415,1.71,13.46,-2.62,-3.513,-4.92,-6.0,-6.86,-7.36,-7.49,-7.36,-1.617,-1.4,206.7,0.0,100.01,6933.25171,4922.16141,1128,0.83,73.48,14.02,-120.8,-9.7,73.9,6.29,279.3,0.0
2020-08-16 04:00:00,966398400,879,-9.97,73.88,6.309,280.9,-3.195,1.757,-102.1,-13.08,-10.28,2.421,1.711,13.46,-2.62,-3.518,-4.92,-6.0,-6.86,-7.36,-7.49,-7.36,-1.6,-1.367,207.1,0.0,200.0,6933.25097,4922.16461,1121,0.81,72.16,13.98,-120.7,-10.4,75.0,6.503,280.8,0.0
2020-08-16 05:00:00,966402000,879,-10.08,74.4,6.675,285.1,-3.153,2.149,-101.8,-12.5,-10.43,2.421,1.71,13.46,-2.623,-3.535,-4.92,-6.0,-6.86,-7.36,-7.49,-7.36,-1.617,-1.4,207.4,0.0,300.0,6933.2518,4922.16467,1123,0.88,74.51,13.97,-120.5,-9.9,73.7,6.658,287.6,0.0
2020-08-16 06:00:00,966405600,879,-9.92,73.62,6.349,286.7,-3.361,1.953,-103.2,-13.58,-10.25,2.422,1.71,13.46,-2.653,-3.54,-4.92,-6.0,-6.86,-7.36,-7.49,-7.36,-1.6,-1.367,207.0,0.0,400.0,6933.25058,4922.16456,1121,0.73,74.36,13.96,-120.6,-10.0,73.8,5.983,286.2,0.0
2020-08-16 07:00:00,966409200,879,-10.2,74.1,6.419,280.4,-3.425,1.683,-103.4,-13.35,-10.51,2.415,1.71,13.46,-2.7,-3.535,-4.92,-6.0,-6.86,-7.36,-7.49,-7.36,-1.65,-1.4,206.3,0.0,500.0,6933.25038,4922.16396,1122,1.14,73.56,13.94,-120.6,-10.2,73.9,5.966,287.4,0.0
2020-08-16 08:00:00,966412800,880,-10.07,73.77,6.764,282.5,-2.224,3.395,-103.3,-13.19,-10.42,2.411,1.71,13.47,-2.72,-3.535,-4.92,-6.0,-6.86,-7.36,-7.49,-7.36,-1.667,-1.383,207.0,0.0,600.01,6933.25037,4922.16497,1119,0.99,73.33,13.94,-120.4,-10.1,73.3,6.389,284.8,0.0
2020-08-16 09:00:00,966416400,880,-10.18,73.57,6.442,283.4,7.13,16.26,-102.2,-13.49,-10.51,2.41,1.711,13.47,-2.723,-3.54,-4.92,-6.0,-6.86,-7.36,-7.49,-7.36,-1.683,-1.367,206.4,0.0,700.0,6933.24949,4922.1631,1113,3.22,71.63,13.93,-119.9,-10.1,73.6,5.808,285.9,0.0
2020-08-16 10:00:00,966420000,880,-10.27,73.73,6.321,281.8,59.89,90.8,-102.0,-13.25,-10.48,2.407,1.711,13.47,-2.73,-3.54,-4.92,-6.0,-6.86,-7.36,-7.49,-7.36,-1.717,-1.35,205.9,0.0,800.0,6933.25091,4922.16406,1119,0.89,72.41,13.93,-119.8,-10.0,74.5,7.429,280.9,0.0
2020-08-16 11:00:00,966423600,880,-9.88,74.43,7.198,282.3,150.1,220.8,-104.7,-12.08,-9.74,2.401,1.709,13.48,-2.73,-3.54,-4.92,-6.0,-6.86,-7.36,-7.49,-7.36,-1.7,-1.333,205.7,0.0,900.0,6933.25037,4922.16527,1120,1.56,72.19,13.93,-119.5,-9.6,74.7,7.184,282.8,0.0
2020-08-16 12:00:00,966427200,881,-8.88,74.08,7.373,284.3,261.4,377.3,-109.9,-11.9,-8.44,2.395,1.705,13.48,-2.73,-3.54,-4.92,-6.0,-6.86,-7.36,-7.49,-7.36,-1.717,-1.333,205.6,0.0,1000.0,6933.25127,4922.16565,1125,0.73,72.69,13.94,-118.7,-8.2,73.7,7.099,293.1,0.0
2020-08-16 13:00:00,966430800,882,-7.7,73.83,7.194,285.0,379.6,533.2,-116.1,-12.51,-6.855,2.394,1.702,13.49,-2.73,-3.54,-4.92,-6.0,-6.86,-7.36,-7.49,-7.36,-1.683,-1.4,206.0,0.0,1100.01,6933.2519,4922.16417,1124,0.9,72.92,13.95,-118.3,-7.3,74.0,7.337,285.0,0.0
2020-08-16 14:00:00,966434400,882,-6.633,74.57,7.379,285.5,501.4,695.8,-121.6,-12.22,-5.458,2.388,1.698,13.5,-2.73,-3.54,-4.92,-6.0,-6.86,-7.36,-7.49,-7.36,-1.667,-1.4,206.6,0.0,1200.0,6933.25095,4922.16576,1124,0.93,74.12,13.97,-117.8,-6.2,74.9,7.355,290.2,0.0
2020-08-16 15:00:00,966438000,882,-5.283,73.9,6.791,287.2,607.1,826,-128.7,-13.52,-3.692,2.382,1.694,13.51,-2.73,-3.54,-4.925,-6.0,-6.86,-7.36,-7.49,-7.36,-1.667,-1.383,206.3,0.0,1300.0,6933.25106,4922.16515,1127,1.06,72.17,13.98,-117.3,-4.7,74.2,6.406,282.4,0.0
2020-08-16 16:00:00,966441600,883,-3.683,73.35,6.32,289.1,687.9,913,-137.5,-15.52,-1.741,2.377,1.689,13.52,-2.747,-3.54,-4.92,-6.0,-6.86,-7.36,-7.49,-7.36,-1.683,-1.417,206.6,0.0,1400.0,6933.25238,4922.16405,1129,2.29,71.46,14.01,-116.7,-3.3,73.1,6.657,288.6,0.0
2020-08-16 17:00:00,966445200,884,-2.6,73.13,6.318,300.4,737.2,963,-143.2,-16.3,-0.452,2.371,1.686,13.53,-2.815,-3.54,-4.92,-6.0,-6.86,-7.36,-7.49,-7.36,-1.667,-1.4,206.7,0.0,1500.0,6933.25094,4922.16533,1123,0.98,70.56,14.06,-116.1,-2.2,74.5,6.0,311.6,0.0
2020-08-16 18:00:00,966448800,884,-1.833,74.8,5.973,297.1,759.0,972,-146.5,-17.18,0.464,2.369,1.683,13.53,-2.83,-3.54,-4.92,-6.0,-6.86,-7.36,-7.49,-7.36,-1.667,-1.383,205.8,0.0,1600.01,6933.2507,4922.16357,1124,0.83,72.61,14.15,-115.9,-1.4,74.3,5.916,308.9,0.0
2020-08-16 19:00:00,966452400,884,-1.05,74.98,5.939,303.1,746.0,934,-149.4,-18.55,1.293,2.367,1.682,13.54,-2.84,-3.54,-4.92,-6.0,-6.86,-7.36,-7.49,-7.36,-1.7,-1.4,206.3,0.0,1700.0,6933.25069,4922.16353,1123,0.77,72.05,14.24,-115.4,-0.8,75.2,5.927,303.3,0.0
2020-08-16 20:00:00,966456000,885,-0.633,77.15,5.639,299.4,696.9,855,-149.9,-19.44,1.663,2.367,1.681,13.54,-2.84,-3.54,-4.92,-6.0,-6.86,-7.36,-7.49,-7.36,-1.7,-1.417,206.2,0.0,1800.0,6933.25007,4922.16407,1123,1.19,74.69,14.31,-115.0,-0.5,78.6,5.676,300.5,0.0
2020-08-16 21:00:00,966459600,885,-0.45,79.15,5.477,300.0,616.6,738.6,-147.8,-19.72,1.562,2.358,1.681,13.55,-2.84,-3.54,-4.92,-6.0,-6.86,-7.36,-7.49,-7.36,-1.667,-1.383,206.5,0.0,1900.0,6933.24952,4922.16208,1120,0.97,72.59,14.36,-114.5,-0.3,78.7,4.6,301.6,0.0
2020-08-16 22:00:00,966463200,886,-0.567,79.77,4.917,294.5,510.4,598.4,-142.2,-20.9,1.24,2.362,1.682,13.55,-2.84,-3.54,-4.92,-6.0,-6.86,-7.36,-7.49,-7.36,-1.65,-1.4,206.3,0.0,2000.0,6933.25118,4922.16432,1123,1.03,74.37,14.38,-114.5,-0.4,78.9,5.754,296.0,0.0
2020-08-16 23:00:00,966466800,886,-0.4,77.9,6.253,302.1,391.9,445.0,-136.8,-19.36,0.615,2.361,1.681,13.55,-2.84,-3.54,-4.92,-6.0,-6.86,-7.36,-7.49,-7.36,-1.65,-1.417,206.1,0.0,2100.01,6933.25052,4922.16378,1123,0.97,73.38,14.39,-114.2,-0.3,76.9,6.911,299.3,0.0
2020-08-17 00:00:00,966470400,886,-0.583,76.93,7.205,302.6,266.3,287.0,-132.8,-18.72,-0.073,2.364,1.684,13.54,-2.847,-3.54,-4.92,-6.0,-6.86,-7.36,-7.49,-7.36,-1.65,-1.417,206.2,0.0,2200.0,6933.25144,4922.16428,1124,2.45,72.72,14.34,-113.7,-0.7,76.8,7.442,305.8,0.0
2020-08-17 01:00:00,966474000,887,-1.133,76.8,7.172,304.4,145.0,142.8,-126.6,-18.12,-1.039,2.365,1.685,13.54,-2.93,-3.54,-4.92,-6.0,-6.86,-7.36,-7.49,-7.36,-1.65,-1.383,206.1,0.0,2300.0,6933.25107,4922.16255,1124,1.1,72.02,14.3,-113.2,-1.4,76.7,7.223,301.8,0.0
2020-08-17 02:00:00,966477600,887,-1.817,76.18,7.082,299.5,49.42,40.68,-120.3,-17.75,-1.991,2.368,1.688,13.55,-2.943,-3.54,-4.92,-6.0,-6.86,-7.36,-7.49,-7.36,-1.667,-1.4,206.3,0.0,0.0,6933.24985,4922.16312,1107,0.86,74.88,14.23,-112.8,-2.2,76.5,6.341,290.4,0.0
2020-08-17 03:00:00,966481200,887,-2.467,77.7,6.503,294.8,1.061,6.59,-116.4,-16.94,-2.819,2.365,1.687,13.55,-2.95,-3.54,-4.92,-6.0,-6.86,-7.36,-7.49,-7.347,-1.7,-1.367,205.7,0.0,100.0,6933.25094,4922.16402,1128,0.85,72.97,14.16,-112.7,-2.6,77.9,6.516,296.1,0.0
2020-08-17 04:00:00,966484800,887,-2.45,76.87,7.486,294.4,-3.62,1.806,-116.4,-16.26,-2.788,2.367,1.689,13.55,-2.95,-3.54,-4.92,-6.0,-6.86,-7.36,-7.49,-7.36,-1.683,-1.4,205.5,0.0,200.01,6933.25041,4922.16486,1122,0.93,73.41,14.14,-112.6,-2.4,76.8,7.577,296.1,0.0
2020-08-17 05:00:00,966488400,888,-2.5,76.95,7.777,298.7,-3.785,1.499,-114.8,-15.38,-2.814,2.388,1.689,13.55,-2.95,-3.54,-4.92,-6.0,-6.86,-7.36,-7.49,-7.36,-1.683,-1.383,206.0,0.0,300.0,6933.25092,4922.16461,1122,0.88,74.54,14.12,-112.4,-2.6,76.9,7.618,294.4,0.0
2020-08-17 06:00:00,966492000,888,-2.383,75.58,7.902,301.8,-3.579,1.912,-114.7,-14.88,-2.75,2.389,1.687,13.56,-2.95,-3.54,-4.92,-6.0,-6.86,-7.36,-7.49,-7.36,-1.667,-1.433,206.3,0.0,400.0,6933.25067,4922.16474,1121,1.04,73.64,14.1,-112.2,-2.3,74.7,8.6,307.4,0.0
2020-08-17 07:00:00,966495600,888,-2.733,75.42,8.27,292.6,-3.745,1.269,-114.8,-14.67,-2.951,2.377,1.689,13.56,-2.95,-3.54,-4.92,-6.0,-6.86,-7.36,-7.49,-7.36,-1.65,-1.417,206.6,0.0,500.0,6933.2506,4922.16371,1122,1.25,73.5,14.08,-112.0,-2.9,75.6,8.44,286.0,0.0
2020-08-17 08:00:00,966499200,888,-3.667,77.12,8.05,288.4,-2.805,2.472,-110.5,-13.18,-3.96,2.386,1.69,13.56,-2.95,-3.54,-4.92,-6.0,-6.832,-7.36,-7.49,-7.36,-1.667,-1.4,206.4,0.0,600.0,6933.25056,4922.16536,1121,0.86,71.24,14.06,-111.8,-3.3,76.4,8.52,282.6,0.0
2020-08-17 09:00:00,966502800,888,-3.4,77.27,7.892,286.6,7.126,16.76,-110.3,-13.66,-3.659,2.391,1.693,13.57,-2.95,-3.54,-4.92,-6.0,-6.823,-7.36,-7.49,-7.36,-1.65,-1.433,206.5,0.0,700.01,6933.24931,4922.1643,1115,1.09,73.97,14.05,-111.5,-3.6,77.9,7.847,289.7,0.0
2020-08-17 10:00:00,966506400,889,-3.517,77.92,8.28,284.8,55.91,86.8,-109.3,-12.96,-3.644,2.393,1.691,13.57,-2.95,-3.54,-4.92,-6.0,-6.815,-7.36,-7.49,-7.36,-1.683,-1.4,205.9,0.0,800.0,6933.25095,4922.16519,1118,0.93,72.08,14.05,-111.3,-3.3,77.6,8.43,285.1,0.0
2020-08-17 11:00:00,966510000,889,-2.983,79.0,8.17,281.2,144.4,214.6,-112.7,-13.18,-2.876,2.39,1.689,13.57,-2.95,-3.54,-4.92,-6.0,-6.813,-7.36,-7.49,-7.36,-1.717,-1.367,205.9,0.0,900.0,6933.25109,4922.16423,1122,0.8,72.17,14.05,-111.4,-2.6,80.0,8.37,271.1,0.0
2020-08-17 12:00:00,966513600,889,-2.317,80.7,8.55,283.6,257.1,368.9,-116.5,-13.06,-1.895,2.391,1.688,13.57,-2.95,-3.54,-4.92,-6.0,-6.795,-7.36,-7.49,-7.36,-1.65,-1.433,206.6,0.0,1000.0,6933.25104,4922.16391,1120,0.85,73.37,14.06,-111.3,-2.0,81.2,8.81,279.8,0.0
2020-08-17 13:00:00,966517200,889,-0.433,79.2,9.02,294.2,380.7,531.0,-125.8,-14.23,0.259,2.384,1.681,13.58,-2.95,-3.54,-4.92,-6.0,-6.823,-7.36,-7.49,-7.36,-1.633,-1.433,206.0,0.0,1100.0,6933.24874,4922.16615,1117,1.0,70.82,14.08,-111.0,-0.1,79.2,8.83,295.2,0.0
2020-08-17 14:00:00,966520800,889,0.533,78.63,9.38,298.3,487.0,663.6,-129.5,-14.3,1.466,2.375,1.68,13.58,-2.95,-3.54,-4.92,-6.0,-6.807,-7.36,-7.49,-7.36,-1.683,-1.433,205.7,0.0,1200.01,6933.2509,4922.16466,1124,0.89,72.82,14.1,-111.4,0.8,78.9,9.97,299.8,0.0
2020-08-17 15:00:00,966524400,889,1.0,79.73,9.98,297.2,584.2,780.7,-131.9,-13.52,2.127,2.376,1.679,13.59,-2.95,-3.54,-4.92,-6.0,-6.807,-7.36,-7.49,-7.36,-1.617,-1.5,206.5,0.0,1300.0,6933.25114,4922.16439,1124,1.19,73.96,14.11,-111.4,1.1,80.0,10.17,295.8,0.0
2020-08-17 16:00:00,966528000,888,1.383,80.0,10.11,290.1,666.2,870,-132.5,-13.72,2.72,2.373,1.677,13.58,-2.953,-3.54,-4.92,-6.0,-6.783,-7.36,-7.49,-7.36,-1.667,-1.467,207.0,0.0,1400.0,6933.25119,4922.16648,1124,1.31,74.28,14.14,-111.3,1.5,79.9,9.59,284.4,0.0
2020-08-17 17:00:00,966531600,889,1.833,78.62,9.51,289.8,721.5,919,-121.5,-15.86,3.351,2.373,1.674,13.59,-2.96,-3.54,-4.92,-6.0,-6.775,-7.36,-7.49,-7.36,-1.65,-1.45,206.6,0.0,1500.0,6933.25207,4922.16619,1131,0.94,74.16,14.21,-111.5,2.0,77.3,10.05,285.9,0.0
2020-08-17 18:00:00,966535200,888,2.25,76.32,10.1,285.8,730.4,904,-116.8,-17.69,3.743,2.373,1.678,13.58,-2.962,-3.54,-4.92,-6.0,-6.753,-7.36,-7.49,-7.36,-1.667,-1.417,206.3,0.0,1600.0,6933.25144,4922.164,1123,0.82,73.66,14.28,-112.0,2.3,77.1,10.05,287.4,0.0
2020-08-17 19:00:00,966538800,888,2.45,76.6,9.32,290.0,691.1,826,-121.6,-18.89,3.933,2.375,1.681,13.59,-3.04,-3.54,-4.92,-6.0,-6.77,-7.36,-7.49,-7.36,-1.683,-1.433,206.4,0.0,1700.01,6933.25075,4922.16594,1125,1.29,72.75,14.36,-111.7,2.5,76.5,8.52,287.2,0.0
2020-08-17 20:00:00,966542400,888,2.5,76.92,8.59,292.8,673.8,779.0,-131.2,-19.74,3.999,2.381,1.685,13.59,-3.04,-3.54,-4.92,-6.0,-6.763,-7.36,-7.49,-7.36,-1.667,-1.433,205.8,0.0,1800.0,6933.25026,4922.16449,1120,1.12,73.07,14.46,-111.9,2.5,77.4,8.07,298.1,0.0
2020-08-17 21:00:00,966546000,888,2.45,78.07,7.242,296.3,599.4,665.7,-138.1,-20.3,3.924,2.379,1.684,13.59,-3.043,-3.54,-4.92,-6.0,-6.767,-7.36,-7.49,-7.36,-1.7,-1.433,205.0,0.0,1900.0,6933.25124,4922.16247,1126,0.9,73.59,14.51,-111.7,2.4,78.7,6.811,295.9,0.0
2020-08-17 22:00:00,966549600,888,2.217,80.1,6.764,290.8,441.1,484.0,-134.0,-18.66,3.381,2.381,1.686,13.58,-3.053,-3.54,-4.92,-6.0,-6.748,-7.36,-7.49,-7.36,-1.583,-1.433,205.7,0.0,2000.0,6933.25045,4922.16569,1122,1.02,75.09,14.47,-111.5,2.1,80.8,6.854,289.3,0.0
2020-08-17 23:00:00,966553200,888,1.833,82.4,6.355,286.4,224.4,254.1,-117.6,-14.77,2.268,2.383,1.688,13.57,-3.06,-3.54,-4.92,-6.0,-6.74,-7.36,-7.49,-7.36,-1.683,-1.417,205.8,0.0,2100.0,6933.25053,4922.1651,1118,0.94,74.73,14.4,-111.7,1.6,83.3,5.893,284.9,0.0
